{
  "status": "success",
  "source": "static_catalog",
  "live_status_check": false,
  "total_count": 9,
  "data": [
    {
      "id": "rpi_andrews_bay",
      "name": "Andrews Bay",
      "location": "Andrews Bay",
      "latitude": 48.5500299,
      "longitude": -123.1666492,
      "status": "offline",
      "detecting": false,
      "lastDetection": null,
      "streamUrl": "https://live.orcasound.net/listen/andrews-bay",
      "source": "Orcasound",
      "imageUrl": null
    },
    {
      "id": "rpi_mast_center",
      "name": "MaST Center Aquarium",
      "location": "MaST Center Aquarium",
      "latitude": 47.34922,
      "longitude": -122.32512,
      "status": "offline",
      "detecting": false,
      "lastDetection": null,
      "streamUrl": "https://live.orcasound.net/listen/mast-center",
      "source": "Orcasound",
      "imageUrl": "https://s3-us-west-2.amazonaws.com/orcasite/rpi_mast_center/thumbnail.png"
    },
    {
      "id": "rpi_north_sjc",
      "name": "North San Juan Channel",
      "location": "North San Juan Channel",
      "latitude": 48.591294,
      "longitude": -123.058779,
      "status": "online",
      "detecting": false,
      "lastDetection": null,
      "streamUrl": "https://live.orcasound.net/listen/north-sjc",
      "source": "Orcasound",
      "imageUrl": "https://s3-us-west-2.amazonaws.com/orcasite/rpi_north_sjc/thumbnail.png"
    },
    {
      "id": "rpi_point_robinson",
      "name": "Point Robinson",
      "location": "Point Robinson",
      "latitude": 47.388383,
      "longitude": -122.37267,
      "status": "offline",
      "detecting": false,
      "lastDetection": null,
      "streamUrl": "https://live.orcasound.net/listen/point-robinson",
      "source": "Orcasound",
      "imageUrl": "https://s3-us-west-2.amazonaws.com/orcasite/rpi_point_robinson/thumbnail.jpg"
    },
    {
      "id": "rpi_sunset_bay",
      "name": "Beach Camp at Sunset Bay",
      "location": "Beach Camp at Sunset Bay",
      "latitude": 47.86497296593844,
      "longitude": -122.33393605795372,
      "status": "online",
      "detecting": false,
      "lastDetection": null,
      "streamUrl": "https://live.orcasound.net/listen/sunset-bay",
      "source": "Orcasound",
      "imageUrl": "https://s3-us-west-2.amazonaws.com/orcasite/rpi_sunset_bay/thumbnail.png"
    },
    {
      "id": "das_possession_bar",
      "name": "DAS - Possession Bar",
      "location": "DAS - Possession Bar",
      "latitude": 47.88472,
      "longitude": -122.47023,
      "status": "offline",
      "detecting": false,
      "lastDetection": null,
      "streamUrl": "https://live.orcasound.net/listen/possession-bar",
      "source": "Orcasound",
      "imageUrl": null
    },
    {
      "id": "rpi_port_townsend",
      "name": "Port Townsend",
      "location": "Port Townsend",
      "latitude": 48.135743,
      "longitude": -122.760614,
      "status": "online",
      "detecting": false,
      "lastDetection": null,
      "streamUrl": "https://live.orcasound.net/listen/port-townsend",
      "source": "Orcasound",
      "imageUrl": "https://s3-us-west-2.amazonaws.com/orcasite/rpi_port_townsend/thumbnail.png"
    },
    {
      "id": "rpi_orcasound_lab",
      "name": "Orcasound Lab",
      "location": "Orcasound Lab",
      "latitude": 48.5583362,
      "longitude": -123.1735774,
      "status": "online",
      "detecting": false,
      "lastDetection": null,
      "streamUrl": "https://live.orcasound.net/listen/orcasound-lab",
      "source": "Orcasound",
      "imageUrl": "https://s3-us-west-2.amazonaws.com/orcasite/rpi_orcasound_lab/thumbnail.png"
    },
    {
      "id": "rpi_bush_point",
      "name": "Bush Point",
      "location": "Bush Point",
      "latitude": 48.0336664,
      "longitude": -122.6040035,
      "status": "online",
      "detecting": false,
      "lastDetection": null,
      "streamUrl": "https://live.orcasound.net/listen/bush-point",
      "source": "Orcasound",
      "imageUrl": "https://s3-us-west-2.amazonaws.com/orcasite/rpi_bush_point/thumbnail.png"
    }
  ],
  "hydrophones": [
    {
      "id": "rpi_andrews_bay",
      "name": "Andrews Bay",
      "location": "Andrews Bay",
      "latitude": 48.5500299,
      "longitude": -123.1666492,
      "status": "offline",
      "detecting": false,
      "lastDetection": null,
      "streamUrl": "https://live.orcasound.net/listen/andrews-bay",
      "source": "Orcasound",
      "imageUrl": null
    },
    {
      "id": "rpi_mast_center",
      "name": "MaST Center Aquarium",
      "location": "MaST Center Aquarium",
      "latitude": 47.34922,
      "longitude": -122.32512,
      "status": "offline",
      "detecting": false,
      "lastDetection": null,
      "streamUrl": "https://live.orcasound.net/listen/mast-center",
      "source": "Orcasound",
      "imageUrl": "https://s3-us-west-2.amazonaws.com/orcasite/rpi_mast_center/thumbnail.png"
    },
    {
      "id": "rpi_north_sjc",
      "name": "North San Juan Channel",
      "location": "North San Juan Channel",
      "latitude": 48.591294,
      "longitude": -123.058779,
      "status": "online",
      "detecting": false,
      "lastDetection": null,
      "streamUrl": "https://live.orcasound.net/listen/north-sjc",
      "source": "Orcasound",
      "imageUrl": "https://s3-us-west-2.amazonaws.com/orcasite/rpi_north_sjc/thumbnail.png"
    },
    {
      "id": "rpi_point_robinson",
      "name": "Point Robinson",
      "location": "Point Robinson",
      "latitude": 47.388383,
      "longitude": -122.37267,
      "status": "offline",
      "detecting": false,
      "lastDetection": null,
      "streamUrl": "https://live.orcasound.net/listen/point-robinson",
      "source": "Orcasound",
      "imageUrl": "https://s3-us-west-2.amazonaws.com/orcasite/rpi_point_robinson/thumbnail.jpg"
    },
    {
      "id": "rpi_sunset_bay",
      "name": "Beach Camp at Sunset Bay",
      "location": "Beach Camp at Sunset Bay",
      "latitude": 47.86497296593844,
      "longitude": -122.33393605795372,
      "status": "online",
      "detecting": false,
      "lastDetection": null,
      "streamUrl": "https://live.orcasound.net/listen/sunset-bay",
      "source": "Orcasound",
      "imageUrl": "https://s3-us-west-2.amazonaws.com/orcasite/rpi_sunset_bay/thumbnail.png"
    },
    {
      "id": "das_possession_bar",
      "name": "DAS - Possession Bar",
      "location": "DAS - Possession Bar",
      "latitude": 47.88472,
      "longitude": -122.47023,
      "status": "offline",
      "detecting": false,
      "lastDetection": null,
      "streamUrl": "https://live.orcasound.net/listen/possession-bar",
      "source": "Orcasound",
      "imageUrl": null
    },
    {
      "id": "rpi_port_townsend",
      "name": "Port Townsend",
      "location": "Port Townsend",
      "latitude": 48.135743,
      "longitude": -122.760614,
      "status": "online",
      "detecting": false,
      "lastDetection": null,
      "streamUrl": "https://live.orcasound.net/listen/port-townsend",
      "source": "Orcasound",
      "imageUrl": "https://s3-us-west-2.amazonaws.com/orcasite/rpi_port_townsend/thumbnail.png"
    },
    {
      "id": "rpi_orcasound_lab",
      "name": "Orcasound Lab",
      "location": "Orcasound Lab",
      "latitude": 48.5583362,
      "longitude": -123.1735774,
      "status": "online",
      "detecting": false,
      "lastDetection": null,
      "streamUrl": "https://live.orcasound.net/listen/orcasound-lab",
      "source": "Orcasound",
      "imageUrl": "https://s3-us-west-2.amazonaws.com/orcasite/rpi_orcasound_lab/thumbnail.png"
    },
    {
      "id": "rpi_bush_point",
      "name": "Bush Point",
      "location": "Bush Point",
      "latitude": 48.0336664,
      "longitude": -122.6040035,
      "status": "online",
      "detecting": false,
      "lastDetection": null,
      "streamUrl": "https://live.orcasound.net/listen/bush-point",
      "source": "Orcasound",
      "imageUrl": "https://s3-us-west-2.amazonaws.com/orcasite/rpi_bush_point/thumbnail.png"
    }
  ]
}